[{"name": "Arches National Park", "lat": 38.72261844, "lng": -109.5863666}, {"name": "Badlands National Park", "lat": 43.68584846, "lng": -102.482942}, {"name": "Big Bend National Park", "lat": 29.29817767, "lng": -103.2297897}, {"name": "Black Canyon Of The Gunnison National Park", "lat": 38.57779869, "lng": -107.7242756}, {"name": "Bryce Canyon National Park", "lat": 37.58399144, "lng": -112.1826689}, {"name": "Canyonlands National Park", "lat": 38.24555783, "lng": -109.8801624}, {"name": "Carlsbad Caverns National Park", "lat": 32.14089463, "lng": -104.5529688}, {"name": "Congaree National Park", "lat": 33.79187523, "lng": -80.74867805}, {"name": "Crater Lake National Park", "lat": 42.94065854, "lng": -122.1338414}, {"name": "Cuyahoga Valley National Park", "lat": 41.26093905, "lng": -81.57116722}, {"name": "Dry Tortugas National Park", "lat": 24.64884965, "lng": -82.87176297}, {"name": "Everglades National Park", "lat": 25.37294225, "lng": -80.88200301}, {"name": "Gates Of The Arctic National Park & Preserve", "lat": 67.75961636, "lng": -153.2917758}, {"name": "Gateway Arch National Park", "lat": 38.62328806, "lng": -90.18039557}, {"name": "Glacier Bay National Park & Preserve", "lat": 58.80086718, "lng": -136.8407579}, {"name": "Glacier National Park", "lat": 48.68414678, "lng": -113.8009306}, {"name": "Great Basin National Park", "lat": 38.94617378, "lng": -114.2579782}, {"name": "Great Sand Dunes National Park & Preserve", "lat": 37.79256812, "lng": -105.5919572}, {"name": "Guadalupe Mountains National Park", "lat": 31.92304462, "lng": -104.885527}, {"name": "Hot Springs National Park", "lat": 34.52414366, "lng": -93.06332936}, {"name": "Indiana Dunes National Park", "lat": 41.63765525, "lng": -87.09647445}, {"name": "Kenai Fjords National Park", "lat": 59.81804414, "lng": -150.106502}, {"name": "Lassen Volcanic National Park", "lat": 40.49354575, "lng": -121.4075993}, {"name": "Mammoth Cave National Park", "lat": 37.19760458, "lng": -86.13090198}, {"name": "Mount Rainier National Park", "lat": 46.86075416, "lng": -121.7043885}, {"name": "Petrified Forest National Park", "lat": 34.98387664, "lng": -109.7877678}, {"name": "Rocky Mountain National Park", "lat": 40.3556924, "lng": -105.6972879}, {"name": "Sequoia & Kings Canyon National Parks", "lat": 36.71277299, "lng": -118.587429}, {"name": "Theodore Roosevelt National Park", "lat": 47.17777274, "lng": -103.4300083}, {"name": "Virgin Islands National Park", "lat": 18.34279656, "lng": -64.74194451}, {"name": "Wrangell - St Elias National Park & Preserve", "lat": 61.4182147, "lng": -142.6028439}, {"name": "Yellowstone National Park", "lat": 44.59824417, "lng": -110.5471695}, {"name": "Yosemite National Park", "lat": 37.84883288, "lng": -119.5571873}, {"name": "Acadia National Park", "lat": 44.30777545, "lng": -68.30063316}, {"name": "Biscayne National Park", "lat": 25.490587, "lng": -80.21023851}, {"name": "Capitol Reef National Park", "lat": 38.2821653130533, "lng": -111.247048377991}, {"name": "Channel Islands National Park", "lat": 33.98680093, "lng": -119.9112735}, {"name": "Congaree National Park", "lat": 33.79187523, "lng": -80.74867805}, {"name": "Death Valley National Park", "lat": 36.48753731, "lng": -117.134395}, {"name": "Denali National Park & Preserve", "lat": 63.29777484, "lng": -151.0526568}, {"name": "Grand Canyon National Park", "lat": 36.17280161, "lng": -112.6836024}, {"name": "Grand Teton National Park", "lat": 43.81853565, "lng": -110.7054666}, {"name": "Great Smoky Mountains National Park", "lat": 35.60116374, "lng": -83.50818326}, {"name": "Haleakal&#257; National Park", "lat": 20.70693015, "lng": -156.1591775}, {"name": "Hawai'i Volcanoes National Park", "lat": 19.3355036, "lng": -155.4700257}, {"name": "Isle Royale National Park", "lat": 48.01145819, "lng": -88.82780657}, {"name": "Joshua Tree National Park", "lat": 33.91418525, "lng": -115.8398125}, {"name": "Katmai National Park & Preserve", "lat": 58.62235668, "lng": -155.0126574}, {"name": "Kobuk Valley National Park", "lat": 67.35631336, "lng": -159.2002293}, {"name": "Lake Clark National Park & Preserve", "lat": 60.57405857, "lng": -153.55535}, {"name": "Mesa Verde National Park", "lat": 37.23908345, "lng": -108.4624032}, {"name": "North Cascades National Park", "lat": 48.71171756, "lng": -121.2069423}, {"name": "Olympic National Park", "lat": 47.80392754, "lng": -123.6663848}, {"name": "Pinnacles National Park", "lat": 36.49029208, "lng": -121.1813607}, {"name": "Saguaro National Park", "lat": 32.20909636, "lng": -110.7574974}, {"name": "Shenandoah National Park", "lat": 38.49236644, "lng": -78.46907715}, {"name": "Voyageurs National Park", "lat": 48.48370609, "lng": -92.8382913}, {"name": "Wind Cave National Park", "lat": 43.58012365, "lng": -103.4394709}, {"name": "Zion National Park", "lat": 37.29839254, "lng": -113.0265138}]
